[{"pk": 1, "model": "analysis.ports", "fields": {"county": "Clatsop", "harbor": "Yes", "geometry": "POINT (171899.4053000006800000 599131.0491000004100000)", "name": "Astoria", "objectid": 1}}, {"pk": 2, "model": "analysis.ports", "fields": {"county": "Clatsop", "harbor": "No", "geometry": "POINT (160864.0874000005400000 566850.8692000005400000)", "name": "Cannon Beach", "objectid": 2}}, {"pk": 3, "model": "analysis.ports", "fields": {"county": "Clatsop", "harbor": "No", "geometry": "POINT (166013.6596000008300000 581201.6611999999700000)", "name": "Gearhart", "objectid": 3}}, {"pk": 4, "model": "analysis.ports", "fields": {"county": "Clatsop", "harbor": "No", "geometry": "POINT (164838.3495000004800000 577829.0146999992400000)", "name": "Seaside", "objectid": 4}}, {"pk": 5, "model": "analysis.ports", "fields": {"county": "Clatsop", "harbor": "No", "geometry": "POINT (159194.4748999998000000 607519.1557999998300000)", "name": "Columbia River", "objectid": 5}}, {"pk": 6, "model": "analysis.ports", "fields": {"county": "Coos", "harbor": "Yes", "geometry": "POINT (97772.9087000004950000 263180.5909000001800000)", "name": "Bandon", "objectid": 6}}, {"pk": 7, "model": "analysis.ports", "fields": {"county": "Coos", "harbor": "Yes", "geometry": "POINT (107389.8749000001700000 287498.6501000002000000)", "name": "Charleston", "objectid": 7}}, {"pk": 8, "model": "analysis.ports", "fields": {"county": "Curry", "harbor": "Yes", "geometry": "POINT (98558.6532000005250000 143375.4693999998300000)", "name": "Brookings", "objectid": 8}}, {"pk": 9, "model": "analysis.ports", "fields": {"county": "Curry", "harbor": "Yes", "geometry": "POINT (89870.3365000002090000 185849.0100999996100000)", "name": "Gold Beach", "objectid": 9}}, {"pk": 10, "model": "analysis.ports", "fields": {"county": "Curry", "harbor": "Yes", "geometry": "POINT (86799.7734999991950000 221519.3449000008400000)", "name": "Port Orford", "objectid": 10}}, {"pk": 11, "model": "analysis.ports", "fields": {"county": "Douglas", "harbor": "Yes", "geometry": "POINT (121634.4225999992300000 323708.7760000005400000)", "name": "Winchester Bay", "objectid": 11}}, {"pk": 12, "model": "analysis.ports", "fields": {"county": "Lane", "harbor": "Yes", "geometry": "POINT (130292.8026000000500000 354460.6280000004900000)", "name": "Florence", "objectid": 12}}, {"pk": 13, "model": "analysis.ports", "fields": {"county": "Lincoln", "harbor": "No", "geometry": "POINT (147464.7858000006500000 457334.8955000005700000)", "name": "Siletz Bay", "objectid": 13}}, {"pk": 14, "model": "analysis.ports", "fields": {"county": "Lincoln", "harbor": "Yes", "geometry": "POINT (142533.8540000002800000 447607.8851999994400000)", "name": "Depoe Bay", "objectid": 14}}, {"pk": 15, "model": "analysis.ports", "fields": {"county": "Lincoln", "harbor": "Yes", "geometry": "POINT (141295.6613999996300000 427077.2380999997300000)", "name": "Newport", "objectid": 15}}, {"pk": 16, "model": "analysis.ports", "fields": {"county": "Lincoln", "harbor": "No", "geometry": "POINT (139389.7136000003700000 405823.7034000009300000)", "name": "Waldport", "objectid": 16}}, {"pk": 17, "model": "analysis.ports", "fields": {"county": "Tillamook", "harbor": "No", "geometry": "POINT (160134.9691000003400000 540563.6360999997700000)", "name": "Nehalem Bay", "objectid": 17}}, {"pk": 18, "model": "analysis.ports", "fields": {"county": "Tillamook", "harbor": "No", "geometry": "POINT (157611.6005000006400000 515576.7489999998400000)", "name": "Netarts Bay", "objectid": 18}}, {"pk": 19, "model": "analysis.ports", "fields": {"county": "Tillamook", "harbor": "Yes", "geometry": "POINT (161600.0771999992400000 529719.9951000008700000)", "name": "Garibaldi", "objectid": 19}}, {"pk": 20, "model": "analysis.ports", "fields": {"county": "Tillamook", "harbor": "Yes", "geometry": "POINT (154500.0644000005000000 489554.7934000007800000)", "name": "Pacific City", "objectid": 20}}]
